{
  "stations": [
    {
      "id": "46221",
      "name": "Santa Monica Bay, CA",
      "lat": 33.855,
      "lon": -118.633,
      "region": "Pacific Coast",
      "country": "US",
      "type": "coastal",
      "priority": "high"
    },
    {
      "id": "46011",
      "name": "Santa Barbara, CA",
      "lat": 34.243,
      "lon": -119.244,
      "region": "Pacific Coast",
      "country": "US",
      "type": "coastal",
      "priority": "high"
    },
    {
      "id": "46054",
      "name": "West Eureka, CA",
      "lat": 40.78,
      "lon": -124.956,
      "region": "Pacific Coast",
      "country": "US",
      "type": "coastal",
      "priority": "high"
    },
    {
      "id": "46089",
      "name": "Tillamook, OR",
      "lat": 45.775,
      "lon": -125.76,
      "region": "Pacific Coast",
      "country": "US",
      "type": "coastal",
      "priority": "medium"
    },
    {
      "id": "46026",
      "name": "San Francisco North",
      "lat": 37.759,
      "lon": -122.833,
      "region": "Pacific Coast",
      "country": "US",
      "type": "coastal",
      "priority": "high"
    },
    {
      "id": "46050",
      "name": "Stonewall Bank, OR",
      "lat": 44.656,
      "lon": -124.524,
      "region": "Pacific Coast",
      "country": "US",
      "type": "coastal",
      "priority": "medium"
    },
    {
      "id": "46041",
      "name": "Cape Elizabeth, WA",
      "lat": 47.353,
      "lon": -124.731,
      "region": "Pacific Coast",
      "country": "US",
      "type": "coastal",
      "priority": "medium"
    },
    {
      "id": "46042",
      "name": "Monterey Bay, CA",
      "lat": 36.785,
      "lon": -122.469,
      "region": "Pacific Coast",
      "country": "US",
      "type": "coastal",
      "priority": "high"
    },
    {
      "id": "46001",
      "name": "Gulf of Alaska",
      "lat": 56.3,
      "lon": -148,
      "region": "Alaska",
      "country": "US",
      "type": "offshore",
      "priority": "critical"
    },
    {
      "id": "46060",
      "name": "West Gulf of Alaska",
      "lat": 56.994,
      "lon": -148.015,
      "region": "Alaska",
      "country": "US",
      "type": "offshore",
      "priority": "high"
    },
    {
      "id": "46070",
      "name": "Kodiak Island",
      "lat": 57.5,
      "lon": -152.9,
      "region": "Alaska",
      "country": "US",
      "type": "coastal",
      "priority": "critical"
    },
    {
      "id": "46080",
      "name": "Yakutat Bay",
      "lat": 59.5,
      "lon": -139.9,
      "region": "Alaska",
      "country": "US",
      "type": "coastal",
      "priority": "high"
    },
    {
      "id": "51001",
      "name": "Northwest Hawaii",
      "lat": 23.445,
      "lon": -162.279,
      "region": "Hawaii",
      "country": "US",
      "type": "offshore",
      "priority": "critical"
    },
    {
      "id": "51002",
      "name": "Southwest Hawaii",
      "lat": 17.218,
      "lon": -157.756,
      "region": "Hawaii",
      "country": "US",
      "type": "coastal",
      "priority": "critical"
    },
    {
      "id": "51003",
      "name": "Northwest Pacific",
      "lat": 19.09,
      "lon": -160.65,
      "region": "Hawaii",
      "country": "US",
      "type": "offshore",
      "priority": "critical"
    },
    {
      "id": "51004",
      "name": "Central Pacific",
      "lat": 17.48,
      "lon": -152.32,
      "region": "Hawaii",
      "country": "US",
      "type": "offshore",
      "priority": "high"
    },
    {
      "id": "21413",
      "name": "Guam West Pacific",
      "lat": 13.35,
      "lon": 144.79,
      "region": "Western Pacific",
      "country": "US",
      "type": "dart",
      "priority": "critical"
    },
    {
      "id": "41001",
      "name": "East Hatteras",
      "lat": 34.68,
      "lon": -72.66,
      "region": "Atlantic Coast",
      "country": "US",
      "type": "offshore",
      "priority": "high"
    },
    {
      "id": "41002",
      "name": "South Hatteras",
      "lat": 31.76,
      "lon": -74.84,
      "region": "Atlantic Coast",
      "country": "US",
      "type": "offshore",
      "priority": "high"
    },
    {
      "id": "44008",
      "name": "Nantucket Shoals",
      "lat": 40.504,
      "lon": -69.248,
      "region": "Atlantic Coast",
      "country": "US",
      "type": "offshore",
      "priority": "high"
    },
    {
      "id": "44013",
      "name": "Boston",
      "lat": 42.346,
      "lon": -70.651,
      "region": "Atlantic Coast",
      "country": "US",
      "type": "coastal",
      "priority": "high"
    },
    {
      "id": "44014",
      "name": "Virginia Beach",
      "lat": 36.611,
      "lon": -74.842,
      "region": "Atlantic Coast",
      "country": "US",
      "type": "offshore",
      "priority": "high"
    },
    {
      "id": "42001",
      "name": "East Gulf",
      "lat": 25.97,
      "lon": -89.68,
      "region": "Gulf of Mexico",
      "country": "US",
      "type": "offshore",
      "priority": "high"
    },
    {
      "id": "42002",
      "name": "West Gulf",
      "lat": 26.55,
      "lon": -93.64,
      "region": "Gulf of Mexico",
      "country": "US",
      "type": "offshore",
      "priority": "high"
    },
    {
      "id": "42020",
      "name": "Corpus Christi",
      "lat": 26.97,
      "lon": -96.7,
      "region": "Gulf of Mexico",
      "country": "US",
      "type": "coastal",
      "priority": "medium"
    },
    {
      "id": "42035",
      "name": "Galveston",
      "lat": 29.23,
      "lon": -94.41,
      "region": "Gulf of Mexico",
      "country": "US",
      "type": "coastal",
      "priority": "high"
    },
    {
      "id": "45001",
      "name": "North Lake Michigan",
      "lat": 45.35,
      "lon": -86.68,
      "region": "Great Lakes",
      "country": "US",
      "type": "lake",
      "priority": "medium"
    },
    {
      "id": "45002",
      "name": "South Lake Michigan",
      "lat": 42.58,
      "lon": -87.38,
      "region": "Great Lakes",
      "country": "US",
      "type": "lake",
      "priority": "medium"
    },
    {
      "id": "45003",
      "name": "North Lake Huron",
      "lat": 45.91,
      "lon": -82.77,
      "region": "Great Lakes",
      "country": "US",
      "type": "lake",
      "priority": "medium"
    },
    {
      "id": "45007",
      "name": "Southeast Lake Ontario",
      "lat": 43.62,
      "lon": -77.4,
      "region": "Great Lakes",
      "country": "US",
      "type": "lake",
      "priority": "medium"
    },
    {
      "id": "52402",
      "name": "Pacific DART Buoy",
      "lat": 17,
      "lon": -156,
      "region": "Central Pacific",
      "country": "US",
      "type": "dart",
      "priority": "critical"
    },
    {
      "id": "aprp7",
      "name": "Apra Harbor, Guam",
      "lat": 13.44,
      "lon": 144.66,
      "region": "Western Pacific",
      "country": "US",
      "type": "coastal",
      "priority": "high"
    }
  ],
  "metadata": {
    "lastUpdated": "2025-07-30T21:47:15.466Z",
    "version": "2.1",
    "totalStations": 32,
    "updateFrequency": "daily",
    "source": "NOAA NDBC - Filtered Active Stations",
    "priorityLevels": {
      "critical": "Primary tsunami monitoring stations",
      "high": "Important regional monitoring",
      "medium": "Secondary monitoring and validation",
      "low": "Supplementary data points"
    },
    "stationTypes": {
      "dart": "Deep-ocean Assessment and Reporting of Tsunamis",
      "offshore": "Deep water ocean buoys",
      "coastal": "Near-shore monitoring stations",
      "lake": "Great Lakes monitoring"
    },
    "additionalStations": "Added known active stations"
  }
}